[
  {"id": "hokkaido", "label": "北海道", "lat": 43.06, "lon": 141.35, "tzOffsetMinutes": 540},
  {"id": "aomori", "label": "青森県", "lat": 40.82, "lon": 140.74, "tzOffsetMinutes": 540},
  {"id": "iwate", "label": "岩手県", "lat": 39.7, "lon": 141.15, "tzOffsetMinutes": 540},
  {"id": "miyagi", "label": "宮城県", "lat": 38.27, "lon": 140.87, "tzOffsetMinutes": 540},
  {"id": "akita", "label": "秋田県", "lat": 39.72, "lon": 140.1, "tzOffsetMinutes": 540},
  {"id": "yamagata", "label": "山形県", "lat": 38.24, "lon": 140.36, "tzOffsetMinutes": 540},
  {"id": "fukushima", "label": "福島県", "lat": 37.75, "lon": 140.47, "tzOffsetMinutes": 540},
  {"id": "ibaraki", "label": "茨城県", "lat": 36.34, "lon": 140.45, "tzOffsetMinutes": 540},
  {"id": "tochigi", "label": "栃木県", "lat": 36.57, "lon": 139.88, "tzOffsetMinutes": 540},
  {"id": "gunma", "label": "群馬県", "lat": 36.39, "lon": 139.06, "tzOffsetMinutes": 540},
  {"id": "saitama", "label": "埼玉県", "lat": 35.86, "lon": 139.65, "tzOffsetMinutes": 540},
  {"id": "chiba", "label": "千葉県", "lat": 35.61, "lon": 140.12, "tzOffsetMinutes": 540},
  {"id": "tokyo", "label": "東京都", "lat": 35.69, "lon": 139.69, "tzOffsetMinutes": 540},
  {"id": "kanagawa", "label": "神奈川県", "lat": 35.45, "lon": 139.64, "tzOffsetMinutes": 540},
  {"id": "niigata", "label": "新潟県", "lat": 37.9, "lon": 139.02, "tzOffsetMinutes": 540},
  {"id": "toyama", "label": "富山県", "lat": 36.7, "lon": 137.21, "tzOffsetMinutes": 540},
  {"id": "ishikawa", "label": "石川県", "lat": 36.59, "lon": 136.63, "tzOffsetMinutes": 540},
  {"id": "fukui", "label": "福井県", "lat": 36.07, "lon": 136.22, "tzOffsetMinutes": 540},
  {"id": "yamanashi", "label": "山梨県", "lat": 35.66, "lon": 138.57, "tzOffsetMinutes": 540},
  {"id": "nagano", "label": "長野県", "lat": 36.65, "lon": 138.18, "tzOffsetMinutes": 540},
  {"id": "gifu", "label": "岐阜県", "lat": 35.39, "lon": 136.72, "tzOffsetMinutes": 540},
  {"id": "shizuoka", "label": "静岡県", "lat": 34.98, "lon": 138.38, "tzOffsetMinutes": 540},
  {"id": "aichi", "label": "愛知県", "lat": 35.18, "lon": 136.91, "tzOffsetMinutes": 540},
  {"id": "mie", "label": "三重県", "lat": 34.73, "lon": 136.51, "tzOffsetMinutes": 540},
  {"id": "shiga", "label": "滋賀県", "lat": 35.0, "lon": 135.87, "tzOffsetMinutes": 540},
  {"id": "kyoto", "label": "京都府", "lat": 35.02, "lon": 135.76, "tzOffsetMinutes": 540},
  {"id": "osaka", "label": "大阪府", "lat": 34.69, "lon": 135.52, "tzOffsetMinutes": 540},
  {"id": "hyogo", "label": "兵庫県", "lat": 34.69, "lon": 135.2, "tzOffsetMinutes": 540},
  {"id": "nara", "label": "奈良県", "lat": 34.69, "lon": 135.83, "tzOffsetMinutes": 540},
  {"id": "wakayama", "label": "和歌山県", "lat": 34.23, "lon": 135.17, "tzOffsetMinutes": 540},
  {"id": "tottori", "label": "鳥取県", "lat": 35.5, "lon": 134.24, "tzOffsetMinutes": 540},
  {"id": "shimane", "label": "島根県", "lat": 35.47, "lon": 133.05, "tzOffsetMinutes": 540},
  {"id": "okayama", "label": "岡山県", "lat": 34.66, "lon": 133.93, "tzOffsetMinutes": 540},
  {"id": "hiroshima", "label": "広島県", "lat": 34.4, "lon": 132.46, "tzOffsetMinutes": 540},
  {"id": "yamaguchi", "label": "山口県", "lat": 34.19, "lon": 131.47, "tzOffsetMinutes": 540},
  {"id": "tokushima", "label": "徳島県", "lat": 34.07, "lon": 134.56, "tzOffsetMinutes": 540},
  {"id": "kagawa", "label": "香川県", "lat": 34.34, "lon": 134.04, "tzOffsetMinutes": 540},
  {"id": "ehime", "label": "愛媛県", "lat": 33.84, "lon": 132.77, "tzOffsetMinutes": 540},
  {"id": "kochi", "label": "高知県", "lat": 33.56, "lon": 133.53, "tzOffsetMinutes": 540},
  {"id": "fukuoka", "label": "福岡県", "lat": 33.61, "lon": 130.42, "tzOffsetMinutes": 540},
  {"id": "saga", "label": "佐賀県", "lat": 33.25, "lon": 130.3, "tzOffsetMinutes": 540},
  {"id": "nagasaki", "label": "長崎県", "lat": 32.74, "lon": 129.87, "tzOffsetMinutes": 540},
  {"id": "kumamoto", "label": "熊本県", "lat": 32.79, "lon": 130.74, "tzOffsetMinutes": 540},
  {"id": "oita", "label": "大分県", "lat": 33.24, "lon": 131.61, "tzOffsetMinutes": 540},
  {"id": "miyazaki", "label": "宮崎県", "lat": 31.91, "lon": 131.42, "tzOffsetMinutes": 540},
  {"id": "kagoshima", "label": "鹿児島県", "lat": 31.56, "lon": 130.56, "tzOffsetMinutes": 540},
  {"id": "okinawa", "label": "沖縄県", "lat": 26.21, "lon": 127.68, "tzOffsetMinutes": 540},
  {"id": "seoul", "label": "韓国・ソウル", "lat": 37.57, "lon": 126.98, "tzOffsetMinutes": 540, "region": "overseas"},
  {"id": "taipei", "label": "台湾・台北", "lat": 25.03, "lon": 121.57, "tzOffsetMinutes": 480, "region": "overseas"},
  {"id": "beijing", "label": "中国・北京", "lat": 39.9, "lon": 116.41, "tzOffsetMinutes": 480, "region": "overseas"},
  {"id": "shanghai", "label": "中国・上海", "lat": 31.23, "lon": 121.47, "tzOffsetMinutes": 480, "region": "overseas"},
  {"id": "hongkong", "label": "香港", "lat": 22.32, "lon": 114.17, "tzOffsetMinutes": 480, "region": "overseas"},
  {"id": "singapore", "label": "シンガポール", "lat": 1.35, "lon": 103.82, "tzOffsetMinutes": 480, "region": "overseas"},
  {"id": "bangkok", "label": "タイ・バンコク", "lat": 13.75, "lon": 100.5, "tzOffsetMinutes": 420, "region": "overseas"},
  {"id": "delhi", "label": "インド・デリー", "lat": 28.61, "lon": 77.21, "tzOffsetMinutes": 330, "region": "overseas"},
  {"id": "dubai", "label": "UAE・ドバイ", "lat": 25.2, "lon": 55.27, "tzOffsetMinutes": 240, "region": "overseas"},
  {"id": "london", "label": "イギリス・ロンドン", "lat": 51.51, "lon": -0.13, "tzOffsetMinutes": 0, "region": "overseas"},
  {"id": "paris", "label": "フランス・パリ", "lat": 48.86, "lon": 2.35, "tzOffsetMinutes": 60, "region": "overseas"},
  {"id": "berlin", "label": "ドイツ・ベルリン", "lat": 52.52, "lon": 13.4, "tzOffsetMinutes": 60, "region": "overseas"},
  {"id": "rome", "label": "イタリア・ローマ", "lat": 41.9, "lon": 12.5, "tzOffsetMinutes": 60, "region": "overseas"},
  {"id": "newyork", "label": "アメリカ・ニューヨーク", "lat": 40.71, "lon": -74.01, "tzOffsetMinutes": -300, "region": "overseas"},
  {"id": "chicago", "label": "アメリカ・シカゴ", "lat": 41.88, "lon": -87.63, "tzOffsetMinutes": -360, "region": "overseas"},
  {"id": "losangeles", "label": "アメリカ・ロサンゼルス", "lat": 34.05, "lon": -118.24, "tzOffsetMinutes": -480, "region": "overseas"},
  {"id": "honolulu", "label": "アメリカ・ホノルル", "lat": 21.31, "lon": -157.86, "tzOffsetMinutes": -600, "region": "overseas"},
  {"id": "sydney", "label": "オーストラリア・シドニー", "lat": -33.87, "lon": 151.21, "tzOffsetMinutes": 600, "region": "overseas"},
  {"id": "saopaulo", "label": "ブラジル・サンパウロ", "lat": -23.55, "lon": -46.63, "tzOffsetMinutes": -180, "region": "overseas"}
]
